nome,latitude,longitude
Praça da Sé,-23.550520,-46.633308
Cristo Redentor,-22.951916,-43.210487
Pelourinho,-12.971111,-38.510833
Maracanã,-22.912160,-43.230056
Pão de Açúcar,-22.948611,-43.156389
